{
"type": "FeatureCollection",
"crs": { "type": "name", "properties": { "name": "urn:ogc:def:crs:OGC:1.3:CRS84" } },
                                                                                
"features": [
{ "type": "Feature", "properties": { "HID": 5380, "A27_007": "朝比奈小学校", "label": "朝比奈小", "ZIP": "236-0033", "A27_008": "神奈川県横浜市金沢区東朝比奈二丁目53-1", "x": 139.595581, "y": 35.322731, "TEL": "045-783-4130", "FAX": "045-701-8042", "After": "はまっこふれあいスクール", "Access": "京急金沢八景駅京急バス三信住宅行三信センター前下車8分", "url": "http:\/\/www.edu.city.yokohama\/es\/asahina\/", "Update": "2013\/4\/1" }, "geometry": { "type": "Point", "coordinates": [ 139.595581, 35.322731 ] } },
{ "type": "Feature", "properties": { "HID": 5370, "A27_007": "金沢小学校", "label": "金沢小", "ZIP": "236-0022", "A27_008": "神奈川県横浜市金沢区町屋町26-26", "x": 139.6297, "y": 35.33567, "TEL": "045-781-2401", "FAX": "045-701-1046", "After": "はまっこふれあいスクール", "Access": "京急金沢文庫下車１5分", "url": "http:\/\/www.edu.city.yokohama\/es\/kanazawa\/", "Update": "2013\/4\/1" }, "geometry": { "type": "Point", "coordinates": [ 139.6297, 35.33567 ] } },
{ "type": "Feature", "properties": { "HID": 5371, "A27_007": "釜利谷小学校", "label": "釜利谷小", "ZIP": "236-0042", "A27_008": "神奈川県横浜市金沢区釜利谷東六丁目37-1", "x": 139.608109, "y": 35.343609, "TEL": "045-781-2468", "FAX": "045-701-4794", "After": "はまっこふれあいスクール", "Access": "京急金沢文庫駅京急バス野村住宅センター行宮ヶ谷下車5分", "url": "http:\/\/www.edu.city.yokohama\/es\/kamariya\/", "Update": "2013\/4\/1" }, "geometry": { "type": "Point", "coordinates": [ 139.608109, 35.343609 ] } },
{ "type": "Feature", "properties": { "HID": 5381, "A27_007": "釜利谷西小学校", "label": "釜利谷西小", "ZIP": "236-0046", "A27_008": "神奈川県横浜市金沢区釜利谷西四丁目19-1", "x": 139.59346, "y": 35.343849, "TEL": "045-784-0921", "FAX": "045-701-8045", "After": "はまっこふれあいスクール", "Access": "京急金沢文庫駅京急バス野村住宅センター行西小学校前下車5分", "url": "http:\/\/www.edu.city.yokohama\/es\/kamariyanishi\/", "Update": "2013\/4\/1" }, "geometry": { "type": "Point", "coordinates": [ 139.59346, 35.343849 ] } },
{ "type": "Feature", "properties": { "HID": 5384, "A27_007": "釜利谷東小学校", "label": "釜利谷東小", "ZIP": "236-0042", "A27_008": "神奈川県横浜市金沢区釜利谷東二丁目12-1", "x": 139.61729, "y": 35.344349, "TEL": "045-783-9398", "FAX": "045-701-9817", "After": "はまっこふれあいスクール", "Access": "京急金沢文庫駅西口下車7分", "url": "http:\/\/www.edu.city.yokohama\/es\/kamariyahigashi\/", "Update": "2013\/4\/1" }, "geometry": { "type": "Point", "coordinates": [ 139.61729, 35.344349 ] } },
{ "type": "Feature", "properties": { "HID": 5389, "A27_007": "釜利谷南小学校", "label": "釜利谷南小", "ZIP": "236-0045", "A27_008": "神奈川県横浜市金沢区釜利谷南四丁目12-1", "x": 139.606064, "y": 35.338902, "TEL": "045-782-3630", "FAX": "045-783-6049", "After": "はまっこふれあいスクール", "Access": "京急金沢文庫駅京急バス関東学院大学金沢文庫キャンパス行パークタウン東下車1分", "url": "http:\/\/www.edu.city.yokohama\/es\/kamariyaminami\/", "Update": "2013\/4\/1" }, "geometry": { "type": "Point", "coordinates": [ 139.606064, 35.338902 ] } },
{ "type": "Feature", "properties": { "HID": 5390, "A27_007": "小田小学校", "label": "小田小", "ZIP": "236-0052", "A27_008": "神奈川県横浜市金沢区富岡西一丁目69-1", "x": 139.62025, "y": 35.37212, "TEL": "045-775-3011", "FAX": "045-773-9347", "After": "はまっこふれあいスクール", "Access": "京急富岡駅西口京急バス「富５」系統富岡９期ニュータウン行・小田中学校下車３分", "url": "http:\/\/www.edu.city.yokohama\/es\/koda\/", "Update": "2013\/4\/1" }, "geometry": { "type": "Point", "coordinates": [ 139.62025, 35.37212 ] } },
{ "type": "Feature", "properties": { "HID": 5377, "A27_007": "瀬ヶ崎小学校", "label": "瀬ヶ崎小", "ZIP": "236-0037", "A27_008": "神奈川県横浜市金沢区六浦東三丁目２－１", "x": 139.620193, "y": 35.319382, "TEL": "045-781-2446", "FAX": "045-701-4892", "After": null, "Access": "京急追浜駅下車10分", "url": "http:\/\/www.edu.city.yokohama\/es\/segasaki\/", "Update": "2013\/4\/1" }, "geometry": { "type": "Point", "coordinates": [ 139.620193, 35.319382 ] } },
{ "type": "Feature", "properties": { "HID": 5374, "A27_007": "大道小学校", "label": "大道小", "ZIP": "236-0035", "A27_008": "神奈川県横浜市金沢区大道二丁目3-1", "x": 139.610474, "y": 35.32666, "TEL": "045-781-2423", "FAX": "045-701-4796", "After": "はまっこふれあいスクール", "Access": "京急六浦駅下車8分又は金沢八景駅バス大道中学方面行大道小前下車1分", "url": "http:\/\/www.edu.city.yokohama\/es\/daido\/", "Update": "2013\/4\/1" }, "geometry": { "type": "Point", "coordinates": [ 139.610474, 35.32666 ] } },
{ "type": "Feature", "properties": { "HID": 5382, "A27_007": "高舟台小学校", "label": "高舟台小", "ZIP": "236-0044", "A27_008": "神奈川県横浜市金沢区高舟台一丁目35-1", "x": 139.607773, "y": 35.333736, "TEL": "045-783-8012", "FAX": "045-701-9816", "After": "はまっこふれあいスクール", "Access": "京急金沢文庫駅京急バス八景台住宅行終点下車3分", "url": "http:\/\/www.edu.city.yokohama\/es\/takafunedai\/", "Update": "2013\/4\/1" }, "geometry": { "type": "Point", "coordinates": [ 139.607773, 35.333736 ] } },
{ "type": "Feature", "properties": { "HID": 5373, "A27_007": "富岡小学校", "label": "富岡小", "ZIP": "236-0052", "A27_008": "神奈川県横浜市金沢区富岡西七丁目13-1", "x": 139.624969, "y": 35.366611, "TEL": "045-773-2440", "FAX": "045-772-9542", "After": "はまっこふれあいスクール", "Access": "京急富岡駅下車8分", "url": "http:\/\/www.edu.city.yokohama\/es\/tomioka\/", "Update": "2013\/4\/1" }, "geometry": { "type": "Point", "coordinates": [ 139.624969, 35.366611 ] } },
{ "type": "Feature", "properties": { "HID": 5383, "A27_007": "並木第一小学校", "label": "並木第一小", "ZIP": "236-0005", "A27_008": "神奈川県横浜市金沢区並木一丁目7-1", "x": 139.639008, "y": 35.373165, "TEL": "045-774-0521", "FAX": "045-773-6948", "After": "はまっこふれあいスクール", "Access": "金沢シーサイドライン並木北下車5分又は京急富岡駅東口下車15分", "url": "http:\/\/www.edu.city.yokohama\/es\/namiki1\/", "Update": "2013\/4\/1" }, "geometry": { "type": "Point", "coordinates": [ 139.639008, 35.373165 ] } },
{ "type": "Feature", "properties": { "HID": 5387, "A27_007": "並木第四小学校", "label": "並木第四小", "ZIP": "236-0005", "A27_008": "神奈川県横浜市金沢区並木三丁目10-1", "x": 139.640884, "y": 35.355919, "TEL": "045-701-3506", "FAX": "045-701-9890", "After": null, "Access": "金沢シーサイドライン幸浦下車5分", "url": "http:\/\/www.edu.city.yokohama\/es\/namiki4\/", "Update": "2013\/4\/1" }, "geometry": { "type": "Point", "coordinates": [ 139.640884, 35.355919 ] } },
{ "type": "Feature", "properties": { "HID": 5393, "A27_007": "並木中央小学校", "label": "並木中央小", "ZIP": "236-0005", "A27_008": "神奈川県横浜市金沢区並木一丁目25-1", "x": 139.64116, "y": 35.366669, "TEL": "045-771-5102", "FAX": "045-773-9014", "After": "はまっこふれあいスクール", "Access": "金沢シーサイドライン並木中央下車2分又は京急富岡駅東口下車15分", "url": "http:\/\/www.edu.city.yokohama\/es\/namikichuo\/", "Update": "2013\/4\/1" }, "geometry": { "type": "Point", "coordinates": [ 139.64116, 35.366669 ] } },
{ "type": "Feature", "properties": { "HID": 5379, "A27_007": "西柴小学校", "label": "西柴小", "ZIP": "236-0017", "A27_008": "神奈川県横浜市金沢区西柴四丁目23-1", "x": 139.633286, "y": 35.347519, "TEL": "045-783-1182", "FAX": "045-701-5014", "After": "はまっこふれあいスクール", "Access": "金沢文庫駅京急バス(西柴団地経由)金沢工業団地行西柴四丁目下車7分", "url": "http:\/\/www.edu.city.yokohama\/es\/nishishiba\/", "Update": "2013\/4\/1" }, "geometry": { "type": "Point", "coordinates": [ 139.633286, 35.347519 ] } },
{ "type": "Feature", "properties": { "HID": 5378, "A27_007": "西富岡小学校", "label": "西富岡小", "ZIP": "236-0052", "A27_008": "神奈川県横浜市金沢区富岡西五丁目49-1", "x": 139.614059, "y": 35.361938, "TEL": "045-772-1791", "FAX": "045-773-6794", "After": "はまっこふれあいスクール", "Access": "京急能見台駅京急バス氷取沢高校行終点氷取沢高校下車５分下車5分", "url": "http:\/\/www.edu.city.yokohama\/es\/nishitomioka\/", "Update": "2013\/4\/1" }, "geometry": { "type": "Point", "coordinates": [ 139.614059, 35.361938 ] } },
{ "type": "Feature", "properties": { "HID": 5388, "A27_007": "能見台小学校", "label": "能見台小", "ZIP": "236-0057", "A27_008": "神奈川県横浜市金沢区能見台三丁目32-1", "x": 139.6221, "y": 35.35807, "TEL": "045-771-8771", "FAX": "045-773-9029", "After": null, "Access": "京急能見台駅京急バス氷取沢高校行中央公園入口下車3分", "url": "http:\/\/www.edu.city.yokohama\/es\/noukendai\/", "Update": "2013\/4\/1" }, "geometry": { "type": "Point", "coordinates": [ 139.6221, 35.35807 ] } },
{ "type": "Feature", "properties": { "HID": 5392, "A27_007": "能見台南小学校", "label": "能見台南小", "ZIP": "236-0057", "A27_008": "神奈川県横浜市金沢区能見台六丁目3-1", "x": 139.615128, "y": 35.353081, "TEL": "045-785-3408", "FAX": "045-785-3420", "After": "はまっこふれあいスクール", "Access": "京急金沢文庫駅京急バス氷取沢高校行又はシティ能見台西行能見台六丁目下車3分", "url": "http:\/\/www.edu.city.yokohama\/es\/noukendaiminami\/", "Update": "2013\/4\/1" }, "geometry": { "type": "Point", "coordinates": [ 139.615128, 35.353081 ] } },
{ "type": "Feature", "properties": { "HID": 5375, "A27_007": "八景小学校", "label": "八景小", "ZIP": "236-0021", "A27_008": "神奈川県横浜市金沢区泥亀一丁目21-2", "x": 139.621872, "y": 35.33876, "TEL": "045-781-2434", "FAX": "045-701-4870", "After": "はまっこふれあいスクール", "Access": "京急金沢文庫駅下車7分", "url": "http:\/\/www.edu.city.yokohama\/es\/hakkei\/", "Update": "2013\/4\/1" }, "geometry": { "type": "Point", "coordinates": [ 139.621872, 35.33876 ] } },
{ "type": "Feature", "properties": { "HID": 5376, "A27_007": "文庫小学校", "label": "文庫小", "ZIP": "236-0014", "A27_008": "神奈川県横浜市金沢区寺前二丁目21-7", "x": 139.630981, "y": 35.340088, "TEL": "045-781-3368", "FAX": "045-701-4873", "After": "はまっこふれあいスクール", "Access": "金沢文庫駅京急バス柴町行又は金沢工業団地循環(西柴経由)文庫小下車3分", "url": "http:\/\/www.edu.city.yokohama\/es\/bunko\/", "Update": "2013\/4\/1" }, "geometry": { "type": "Point", "coordinates": [ 139.630981, 35.340088 ] } },
{ "type": "Feature", "properties": { "HID": 5372, "A27_007": "六浦小学校", "label": "六浦小", "ZIP": "236-0031", "A27_008": "神奈川県横浜市金沢区六浦三丁目11-1", "x": 139.612885, "y": 35.329868, "TEL": "045-782-5331", "FAX": "045-701-4603", "After": "はまっこふれあいスクール", "Access": "京急金沢八景駅京急バス又は神奈中バス三信住宅・大道中・大船駅・鎌倉駅行六浦下車５分", "url": "http:\/\/www.edu.city.yokohama\/es\/mutsuura\/", "Update": "2013\/4\/1" }, "geometry": { "type": "Point", "coordinates": [ 139.612885, 35.329868 ] } },
{ "type": "Feature", "properties": { "HID": 5391, "A27_007": "六浦南小学校", "label": "六浦南小", "ZIP": "236-0038", "A27_008": "神奈川県横浜市金沢区六浦南三丁目22-1", "x": 139.611145, "y": 35.315689, "TEL": "045-785-3244", "FAX": "045-783-6984", "After": "はまっこふれあいスクール", "Access": "京急逗子線六浦駅下車15分又は京急バス六浦駅循環線六浦南小学校前下車", "url": "http:\/\/www.edu.city.yokohama\/es\/mutsuuraminami\/", "Update": "2013\/4\/1" }, "geometry": { "type": "Point", "coordinates": [ 139.611145, 35.315689 ] } }
]
}
